{"directed": true, "multigraph": false, "graph": {"node_default": {}, "edge_default": {}, "DateObtained": "19/10/10", "GeoLocation": "USA, Europe", "GeoExtent": "Country+", "Network": "Cogent ", "Provenance": "Primary", "Note": "Contains Aleron", "Source": "http://www.cogentco.com/us/network_map.php", "Version": "1.0", "DateType": "Current", "Type": "COM", "Backbone": 1, "Commercial": 0, "label": "Cogentco", "ToolsetVersion": "0.3.34dev-20120328", "Customer": 1, "IX": 0, "SourceGitVersion": "e278b1b", "DateModifier": "=", "DateMonth": "08", "LastAccess": "3/08/10", "Access": 0, "Layer": "IP", "Creator": "Topology Zoo Toolset", "Developed": 1, "Transit": 1, "NetworkDate": "2010_08", "DateYear": "2010", "LastProcessed": "2011_09_01", "Testbed": 0}, "nodes": [{"Internal": 1, "Latitude": 45.74944, "Country": "Romania", "type": "On-Net and Off-Net Market", "id": 0, "Longitude": 21.22722, "label": "Timisoara"}, {"Internal": 1, "Latitude": 44.43225, "Country": "Romania", "type": "On-Net and Off-Net Market", "id": 1, "Longitude": 26.10626, "label": "Bucharest"}, {"Internal": 1, "Latitude": 50.0, "Country": "Germany", "type": "On-Net and Off-Net Market", "id": 2, "Longitude": 8.27111, "label": "Mainz-Wiesbaden"}, {"Internal": 1, "Latitude": 49.48833, "Country": "Germany", "type": "On-Net and Off-Net Market", "id": 3, "Longitude": 8.46472, "label": "Mannheim"}, {"Internal": 1, "Latitude": 48.78232, "Country": "Germany", "type": "On-Net and Off-Net Market", "id": 4, "Longitude": 9.17702, "label": "Stuttgart"}, {"Internal": 1, "Latitude": 49.44778, "Country": "Germany", "type": "On-Net and Off-Net Market", "id": 5, "Longitude": 11.06833, "label": "Nuremberg"}, {"Internal": 1, "Latitude": 48.13743, "Country": "Germany", "type": "On-Net and Off-Net Market", "id": 6, "Longitude": 11.57549, "label": "Munich"}, {"Internal": 1, "Latitude": 48.20849, "Country": "Austria", "type": "On-Net and Off-Net Market", "id": 7, "Longitude": 16.37208, "label": "Vienna"}, {"Internal": 1, "Latitude": 48.14816, "Country": "Slovakia", "type": "On-Net and Off-Net Market", "id": 8, "Longitude": 17.10674, "label": "Bratislava"}, {"Internal": 1, "Latitude": 47.49801, "Country": "Hungary", "type": "On-Net and Off-Net Market", "id": 9, "Longitude": 19.03991, "label": "Budapest"}, {"Internal": 1, "Latitude": 43.0389, "Country": "United States", "type": "On-Net and Off-Net Market with Cogent Data Center(s)", "id": 10, "Longitude": -87.90647, "label": "Milwaukee"}, {"Internal": 1, "Latitude": 44.97997, "Country": "United States", "type": "On-Net and Off-Net Market", "id": 11, "Longitude": -93.26384, "label": "Minneapolis"}, {"Internal": 1, "Latitude": 41.68338, "Country": "United States", "type": "On-Net and Off-Net Market", "id": 12, "Longitude": -86.25001, "label": "South Bend"}, {"Internal": 1, "Latitude": 41.85003, "Country": "United States", "type": "On-Net and Off-Net Market with Cogent Data Center(s)", "id": 13, "Longitude": -87.65005, "label": "Chicago"}, {"Internal": 1, "Latitude": 39.11417, "Country": "United States", "type": "On-Net and Off-Net Market", "id": 14, "Longitude": -94.62746, "label": "Kansas City"}, {"Internal": 1, "Latitude": 38.62727, "Country": "United States", "type": "On-Net and Off-Net Market", "id": 15, "Longitude": -90.19789, "label": "St Louis"}, {"Internal": 1, "Latitude": 41.60054, "Country": "United States", "type": "On-Net and Off-Net Market", "id": 16, "Longitude": -93.60911, "label": "Des Moines"}, {"Internal": 1, "Latitude": 41.25861, "Country": "United States", "type": "On-Net and Off-Net Market", "id": 17, "Longitude": -95.93779, "label": "Omaha"}, {"Internal": 1, "Latitude": 38.25424, "Country": "United States", "type": "On-Net and Off-Net Market", "id": 18, "Longitude": -85.75941, "label": "Louisville"}, {"Internal": 1, "Latitude": 36.16589, "Country": "United States", "type": "On-Net and Off-Net Market", "id": 19, "Longitude": -86.78444, "label": "Nashville"}, {"Internal": 1, "Latitude": 43.54111, "Country": "Spain", "type": "On-Net and Off-Net Market", "id": 20, "Longitude": -5.66444, "label": "Gijon"}, {"Internal": 1, "Latitude": 43.46472, "Country": "Spain", "type": "On-Net and Off-Net Market", "id": 21, "Longitude": -3.80444, "label": "Santander"}, {"Internal": 1, "Latitude": 42.23333, "Country": "Spain", "type": "On-Net and Off-Net Market", "id": 22, "Longitude": -8.71667, "label": "Vigo"}, {"Internal": 1, "Latitude": 42.6, "Country": "Spain", "type": "On-Net and Off-Net Market", "id": 23, "Longitude": -5.56667, "label": "Leon"}, {"Internal": 1, "Latitude": 41.65606, "Country": "Spain", "type": "On-Net and Off-Net Market", "id": 24, "Longitude": -0.87734, "label": "Zaragoza"}, {"Internal": 1, "Latitude": 41.38879, "Country": "Spain", "type": "On-Net and Off-Net Market", "id": 25, "Longitude": 2.15899, "label": "Barcelona"}, {"Internal": 1, "Latitude": 43.26271, "Country": "Spain", "type": "On-Net and Off-Net Market", "id": 26, "Longitude": -2.92528, "label": "Bilbao"}, {"Internal": 1, "Latitude": 42.46667, "Country": "Spain", "type": "On-Net and Off-Net Market", "id": 27, "Longitude": -2.45, "label": "Logrono"}, {"Internal": 1, "Latitude": 40.65, "Country": "Spain", "type": "On-Net and Off-Net Market", "id": 28, "Longitude": -4.7, "label": "Avila"}, {"Internal": 1, "Latitude": 43.31283, "Country": "Spain", "type": "On-Net and Off-Net Market", "id": 29, "Longitude": -1.97499, "label": "San Sebastian"}, {"Internal": 1, "Latitude": 39.76838, "Country": "United States", "type": "On-Net and Off-Net Market", "id": 30, "Longitude": -86.15804, "label": "Indianapolis"}, {"Internal": 1, "Latitude": 39.162, "Country": "United States", "type": "Off-Net Market", "id": 31, "Longitude": -84.45689, "label": "Cincinnati"}, {"geocode_append": "US", "Country": "United States", "Longitude": -83.55521, "label": "Toledo", "Internal": 1, "Latitude": 41.66394, "type": "On-Net and Off-Net Market", "id": 32}, {"Internal": 1, "Latitude": 42.33143, "Country": "United States", "type": "On-Net and Off-Net Market", "id": 33, "Longitude": -83.04575, "label": "Detroit"}, {"Internal": 1, "Latitude": 39.75895, "Country": "United States", "type": "Off-Net Market", "id": 34, "Longitude": -84.19161, "label": "Dayton"}, {"Internal": 1, "Latitude": 39.96118, "Country": "United States", "type": "On-Net and Off-Net Market with Cogent Data Center(s)", "id": 35, "Longitude": -82.99879, "label": "Columbus"}, {"Internal": 1, "Latitude": 39.3995, "Country": "United States", "type": "On-Net and Off-Net Market", "id": 36, "Longitude": -84.56134, "label": "Hamilton"}, {"Internal": 1, "Latitude": 41.4995, "Country": "United States", "type": "On-Net and Off-Net Market", "id": 37, "Longitude": -81.69541, "label": "Cleveland"}, {"Internal": 1, "Latitude": 42.88645, "Country": "United States", "type": "On-Net and Off-Net Market", "id": 38, "Longitude": -78.87837, "label": "Buffalo"}, {"Internal": 1, "Latitude": 40.46423, "Country": "United States", "type": "On-Net and Off-Net Market", "id": 39, "Longitude": -80.60091, "label": "Toronto"}, {"Internal": 1, "Latitude": 59.91273, "Country": "Norway", "type": "On-Net and Off-Net Market", "id": 40, "Longitude": 10.74609, "label": "Oslo"}, {"Internal": 1, "Latitude": 59.33258, "Country": "Sweden", "type": "On-Net and Off-Net Market", "id": 41, "Longitude": 18.0649, "label": "Stockholm"}, {"Internal": 1, "Latitude": 55.67594, "Country": "Denmark", "type": "On-Net and Off-Net Market", "id": 42, "Longitude": 12.56553, "label": "Copenhagen"}, {"Internal": 1, "Latitude": 55.60587, "Country": "Sweden", "type": "On-Net and Off-Net Market", "id": 43, "Longitude": 13.00073, "label": "Malmo"}, {"Internal": 1, "Latitude": 54.97328, "Country": "United Kingdom", "type": "On-Net and Off-Net Market", "id": 44, "Longitude": -1.61396, "label": "Newcastle"}, {"Internal": 1, "Latitude": 53.79648, "Country": "United Kingdom", "type": "On-Net and Off-Net Market", "id": 45, "Longitude": -1.54785, "label": "Leeds"}, {"Internal": 1, "Latitude": 55.86515, "Country": "United Kingdom", "type": "On-Net and Off-Net Market", "id": 46, "Longitude": -4.25763, "label": "Glasgow"}, {"Internal": 1, "Latitude": 55.95, "Country": "United Kingdom", "type": "On-Net and Off-Net Market", "id": 47, "Longitude": -3.2, "label": "Edinburgh"}, {"Internal": 1, "Latitude": 53.41058, "Country": "United Kingdom", "type": "On-Net and Off-Net Market", "id": 48, "Longitude": -2.97794, "label": "Liverpool Southport"}, {"Internal": 1, "Latitude": 53.48095, "Country": "United Kingdom", "type": "On-Net and Off-Net Market", "id": 49, "Longitude": -2.23743, "label": "Manchester"}, {"Internal": 1, "Latitude": 38.71667, "Country": "Portugal", "type": "On-Net and Off-Net Market", "id": 50, "Longitude": -9.13333, "label": "Lisbon"}, {"Internal": 1, "Latitude": 40.2, "Country": "Portugal", "type": "On-Net and Off-Net Market", "id": 51, "Longitude": -8.41667, "label": "Coimbra"}, {"Internal": 1, "Latitude": 38.34517, "Country": "Spain", "type": "On-Net and Off-Net Market", "id": 52, "Longitude": -0.48149, "label": "Alicante"}, {"Internal": 1, "Latitude": 37.98333, "Country": "Spain", "type": "On-Net and Off-Net Market", "id": 53, "Longitude": -1.11667, "label": "Murcia"}, {"Internal": 1, "Latitude": 40.4165, "Country": "Spain", "type": "On-Net and Off-Net Market", "id": 54, "Longitude": -3.70256, "label": "Madrid"}, {"Internal": 1, "Latitude": 39.46975, "Country": "Spain", "type": "On-Net and Off-Net Market", "id": 55, "Longitude": -0.37739, "label": "Valencia"}, {"Internal": 1, "Latitude": 37.37722, "Country": "Spain", "type": "On-Net and Off-Net Market", "id": 56, "Longitude": -5.98694, "label": "Sevilla"}, {"Internal": 1, "Latitude": 38.88333, "Country": "Spain", "type": "On-Net and Off-Net Market", "id": 57, "Longitude": -6.96667, "label": "Badajoz"}, {"Internal": 1, "Latitude": 37.18817, "Country": "Spain", "type": "On-Net and Off-Net Market", "id": 58, "Longitude": -3.60667, "label": "Granada"}, {"Internal": 1, "Latitude": 36.72016, "Country": "Spain", "type": "On-Net and Off-Net Market", "id": 59, "Longitude": -4.42034, "label": "Malaga"}, {"Internal": 1, "Latitude": 30.26715, "Country": "United States", "type": "On-Net and Off-Net Market", "id": 60, "Longitude": -97.74306, "label": "Austin"}, {"Internal": 1, "Latitude": 29.42412, "Country": "United States", "type": "On-Net and Off-Net Market", "id": 61, "Longitude": -98.49363, "label": "San Antonio"}, {"Internal": 1, "Latitude": 29.95465, "Country": "United States", "type": "On-Net and Off-Net Market with Cogent Data Center(s)", "id": 62, "Longitude": -90.07507, "label": "New Orleans"}, {"Internal": 1, "Latitude": 32.29876, "Country": "United States", "type": "On-Net and Off-Net Market", "id": 63, "Longitude": -90.18481, "label": "Jackson"}, {"Internal": 1, "Latitude": 36.15398, "Country": "United States", "type": "On-Net and Off-Net Market", "id": 64, "Longitude": -95.99278, "label": "Tulsa"}, {"Internal": 1, "Latitude": 35.46756, "Country": "United States", "type": "On-Net and Off-Net Market", "id": 65, "Longitude": -97.51643, "label": "Oklahoma City"}, {"Internal": 1, "Latitude": 32.72541, "Country": "United States", "type": "On-Net and Off-Net Market", "id": 66, "Longitude": -97.32085, "label": "Fort Worth"}, {"Internal": 1, "Latitude": 32.78306, "Country": "United States", "type": "On-Net and Off-Net Market with Cogent Data Center(s)", "id": 67, "Longitude": -96.80667, "label": "Dallas"}, {"Internal": 1, "Latitude": 35.14953, "Country": "United States", "type": "On-Net and Off-Net Market", "id": 68, "Longitude": -90.04898, "label": "Memphis"}, {"Internal": 1, "Latitude": 29.76328, "Country": "United States", "type": "On-Net and Off-Net Market with Cogent Data Center(s)", "id": 69, "Longitude": -95.36327, "label": "Houston"}, {"Internal": 1, "Latitude": 47.38333, "Country": "France", "type": "On-Net and Off-Net Market with Cogent Data Center(s)", "id": 70, "Longitude": 0.68333, "label": "Tours"}, {"Internal": 1, "Latitude": 47.21725, "Country": "France", "type": "On-Net and Off-Net Market with Cogent Data Center(s)", "id": 71, "Longitude": -1.55336, "label": "Nantes"}, {"Internal": 1, "Latitude": 48.08333, "Country": "France", "type": "On-Net and Off-Net Market with Cogent Data Center(s)", "id": 72, "Longitude": -1.68333, "label": "Rennes"}, {"Internal": 1, "Latitude": 49.18585, "Country": "France", "type": "On-Net and Off-Net Market", "id": 73, "Longitude": -0.35912, "label": "Caen"}, {"Internal": 1, "Latitude": 49.44313, "Country": "France", "type": "On-Net and Off-Net Market with Cogent Data Center(s)", "id": 74, "Longitude": 1.09932, "label": "Rouen"}, {"Internal": 1, "Latitude": 49.25, "Country": "France", "type": "On-Net and Off-Net Market", "id": 75, "Longitude": 4.03333, "label": "Reims"}, {"Internal": 1, "Latitude": 49.61167, "Country": "Luxembourg", "type": "On-Net and Off-Net Market", "id": 76, "Longitude": 6.13, "label": "Luxembourg"}, {"Internal": 1, "Latitude": 50.11667, "Country": "Germany", "type": "On-Net and Off-Net Market with Cogent Data Center(s)", "id": 77, "Longitude": 8.68333, "label": "Frankfurt"}, {"Internal": 1, "Latitude": 44.83333, "Country": "France", "type": "On-Net and Off-Net Market with Cogent Data Center(s)", "id": 78, "Longitude": -0.56667, "label": "Bordeaux"}, {"Internal": 1, "Latitude": 46.58333, "Country": "France", "type": "On-Net and Off-Net Market with Cogent Data Center(s)", "id": 79, "Longitude": 0.33333, "label": "Poiters"}, {"Internal": 1, "Latitude": 25.77427, "Country": "United States", "type": "On-Net and Off-Net Market with Cogent Data Center(s)", "id": 80, "Longitude": -80.19366, "label": "Miami"}, {"Internal": 1, "Latitude": 26.35869, "Country": "United States", "type": "On-Net and Off-Net Market with Cogent Data Center(s)", "id": 81, "Longitude": -80.0831, "label": "Boca Raton"}, {"Internal": 1, "Latitude": 33.749, "Country": "United States", "type": "On-Net and Off-Net Market with Cogent Data Center(s)", "id": 82, "Longitude": -84.38798, "label": "Atlanta"}, {"Internal": 1, "Latitude": 35.22709, "Country": "United States", "type": "On-Net and Off-Net Market", "id": 83, "Longitude": -80.84313, "label": "Charlotte"}, {"Internal": 1, "Latitude": 36.07264, "Country": "United States", "type": "On-Net and Off-Net Market", "id": 84, "Longitude": -79.79198, "label": "Greensboro"}, {"Internal": 1, "Latitude": 35.7721, "Country": "United States", "type": "On-Net and Off-Net Market", "id": 85, "Longitude": -78.63861, "label": "Raleigh"}, {"Internal": 1, "Latitude": 27.94752, "Country": "United States", "type": "On-Net and Off-Net Market", "id": 86, "Longitude": -82.45843, "label": "Tampa"}, {"Internal": 1, "Latitude": 28.53834, "Country": "United States", "type": "On-Net and Off-Net Market", "id": 87, "Longitude": -81.37924, "label": "Orlando"}, {"Internal": 1, "Latitude": 30.33218, "Country": "United States", "type": "On-Net and Off-Net Market", "id": 88, "Longitude": -81.65565, "label": "Jacksonville"}, {"geocode_append": "US", "Country": "United States", "Longitude": -86.80249, "label": "Birmingham", "Internal": 1, "Latitude": 33.52066, "type": "On-Net and Off-Net Market", "id": 89}, {"Internal": 1, "Latitude": 43.70313, "Country": "France", "type": "On-Net and Off-Net Market with Cogent Data Center(s)", "id": 90, "Longitude": 7.26608, "label": "Nice"}, {"Internal": 1, "Latitude": 45.16667, "Country": "France", "type": "On-Net and Off-Net Market with Cogent Data Center(s)", "id": 91, "Longitude": 5.71667, "label": "Grenoble"}, {"Internal": 1, "Latitude": 45.75, "Country": "France", "type": "On-Net and Off-Net Market", "id": 92, "Longitude": 4.85, "label": "Lyon"}, {"Internal": 1, "Latitude": 47.31667, "Country": "France", "type": "On-Net and Off-Net Market with Cogent Data Center(s)", "id": 93, "Longitude": 5.01667, "label": "Dijon"}, {"Internal": 1, "Latitude": 43.60426, "Country": "France", "type": "On-Net and Off-Net Market with Cogent Data Center(s)", "id": 94, "Longitude": 1.44367, "label": "Toulouse"}, {"geocode_append": "France", "Country": "France", "Longitude": 3.88333, "label": "Montpellier", "Internal": 1, "Latitude": 43.6, "type": "On-Net and Off-Net Market with Cogent Data Center(s)", "id": 95}, {"Internal": 1, "Latitude": 43.3, "Country": "France", "type": "On-Net and Off-Net Market", "id": 96, "Longitude": 5.4, "label": "Marseille"}, {"Internal": 1, "Latitude": 42.69751, "Country": "Bulgaria", "type": "On-Net and Off-Net Market with Cogent Data Center(s)", "id": 97, "Longitude": 23.32415, "label": "Sophia"}, {"Internal": 1, "Latitude": 50.08804, "Country": "Czech Republic", "type": "On-Net and Off-Net Market", "id": 98, "Longitude": 14.42076, "label": "Prague"}, {"Internal": 1, "Latitude": 46.20222, "Country": "Switzerland", "type": "On-Net and Off-Net Market", "id": 99, "Longitude": 6.14569, "label": "Geneva"}, {"Internal": 1, "Latitude": 46.94809, "Country": "Switzerland", "type": "On-Net and Off-Net Market", "id": 100, "Longitude": 7.44744, "label": "Bern"}, {"Internal": 1, "Latitude": 34.05223, "Country": "United States", "type": "On-Net and Off-Net Market with Cogent Data Center(s)", "id": 101, "Longitude": -118.24368, "label": "Los Angeles"}, {"Internal": 1, "Latitude": 33.78779, "Country": "United States", "type": "On-Net and Off-Net Market with Cogent Data Center(s)", "id": 102, "Longitude": -117.85311, "label": "Orange County"}, {"Internal": 1, "Latitude": 37.77493, "Country": "United States", "type": "On-Net and Off-Net Market", "id": 103, "Longitude": -122.41942, "label": "San Francisco"}, {"Internal": 1, "Latitude": 37.35411, "Country": "United States", "type": "On-Net and Off-Net Market", "id": 104, "Longitude": -121.95524, "label": "Santa Clara"}, {"Internal": 1, "Latitude": 38.58157, "Country": "United States", "type": "On-Net and Off-Net Market", "id": 105, "Longitude": -121.4944, "label": "Sacramento"}, {"Internal": 1, "Latitude": 37.80437, "Country": "United States", "type": "On-Net and Off-Net Market with Cogent Data Center(s)", "id": 106, "Longitude": -122.2708, "label": "Oakland"}, {"Internal": 1, "Latitude": 40.76078, "Country": "United States", "type": "On-Net and Off-Net Market", "id": 107, "Longitude": -111.89105, "label": "Salt Lake City"}, {"Internal": 1, "Latitude": 43.6135, "Country": "United States", "type": "On-Net and Off-Net Market", "id": 108, "Longitude": -116.20345, "label": "Boise"}, {"Internal": 1, "Latitude": 32.71533, "Country": "United States", "type": "On-Net and Off-Net Market", "id": 109, "Longitude": -117.15726, "label": "San Diego"}, {"Internal": 1, "Latitude": 33.44838, "Country": "United States", "type": "On-Net and Off-Net Market", "id": 110, "Longitude": -112.07404, "label": "Phoenix"}, {"Internal": 1, "Latitude": 43.46139, "Country": "Italy", "type": "On-Net and Off-Net Market", "id": 111, "Longitude": 11.87691, "label": "Arezzo"}, {"Internal": 1, "Latitude": 41.89474, "Country": "Italy", "type": "On-Net and Off-Net Market", "id": 112, "Longitude": 12.4839, "label": "Rome"}, {"Internal": 1, "Latitude": 46.47747, "Country": "Ukraine", "type": "On-Net and Off-Net Market", "id": 113, "Longitude": 30.73262, "label": "Odessa"}, {"Internal": 1, "Latitude": 45.45, "Country": "Romania", "type": "On-Net and Off-Net Market", "id": 114, "Longitude": 28.05, "label": "Galati"}, {"Internal": 1, "Latitude": 43.41667, "Country": "Bulgaria", "type": "On-Net and Off-Net Market", "id": 115, "Longitude": 28.16667, "label": "Balchik"}, {"Internal": 1, "Latitude": 44.18333, "Country": "Romania", "type": "On-Net and Off-Net Market", "id": 116, "Longitude": 28.65, "label": "Constanta"}, {"Internal": 1, "Latitude": 42.50606, "Country": "Bulgaria", "type": "On-Net and Off-Net Market", "id": 117, "Longitude": 27.46781, "label": "Burgas"}, {"Internal": 1, "Latitude": 43.21667, "Country": "Bulgaria", "type": "On-Net and Off-Net Market", "id": 118, "Longitude": 27.91667, "label": "Varna"}, {"Internal": 1, "Latitude": 42.69751, "Country": "Bulgaria", "type": "On-Net and Off-Net Market", "id": 119, "Longitude": 23.32415, "label": "Sofia"}, {"Internal": 1, "Latitude": 41.71667, "Country": "Bulgaria", "type": "On-Net and Off-Net Market", "id": 120, "Longitude": 26.31667, "label": "Kapitan Andreevo"}, {"Internal": 1, "Latitude": 26.20341, "Country": "United States", "type": "On-Net and Off-Net Market", "id": 121, "Longitude": -98.23001, "label": "McAllen"}, {"Internal": 1, "Latitude": 27.50641, "Country": "United States", "type": "On-Net and Off-Net Market", "id": 122, "Longitude": -99.50754, "label": "Laredo"}, {"Internal": 1, "Latitude": 20.6, "Country": "Mexico", "type": "On-Net and Off-Net Market", "id": 123, "Longitude": -100.38333, "label": "Queretaro"}, {"Internal": 1, "Latitude": 25.66667, "Country": "Mexico", "type": "On-Net and Off-Net Market", "id": 124, "Longitude": -100.31667, "label": "Monterrey"}, {"Internal": 1, "Latitude": 19.42847, "Country": "Mexico", "type": "On-Net and Off-Net Market", "id": 125, "Longitude": -99.12766, "label": "Mexico City"}, {"Internal": 1, "Latitude": 20.66667, "Country": "Mexico", "type": "On-Net and Off-Net Market", "id": 126, "Longitude": -103.33333, "label": "Guadalajara"}, {"Internal": 1, "Latitude": 35.08449, "Country": "United States", "type": "On-Net and Off-Net Market", "id": 127, "Longitude": -106.65114, "label": "Albuquerque"}, {"Internal": 1, "Latitude": 31.75872, "Country": "United States", "type": "On-Net and Off-Net Market", "id": 128, "Longitude": -106.48693, "label": "El Paso"}, {"Internal": 1, "Latitude": 39.73915, "Country": "United States", "type": "On-Net and Off-Net Market", "id": 129, "Longitude": -104.9847, "label": "Denver"}, {"Internal": 1, "Latitude": 38.83388, "Country": "United States", "type": "On-Net and Off-Net Market", "id": 130, "Longitude": -104.82136, "label": "Colorado Springs"}, {"Internal": 1, "Latitude": 51.05089, "Country": "Germany", "type": "On-Net and Off-Net Market", "id": 131, "Longitude": 13.73832, "label": "Dresden"}, {"Internal": 1, "Latitude": 47.56667, "Country": "Switzerland", "type": "On-Net and Off-Net Market", "id": 132, "Longitude": 7.6, "label": "Basel"}, {"Internal": 1, "Latitude": 48.58333, "Country": "France", "type": "On-Net and Off-Net Market with Cogent Data Center(s)", "id": 133, "Longitude": 7.75, "label": "Strasbourg"}, {"Internal": 1, "Latitude": 45.46427, "Country": "Italy", "type": "On-Net and Off-Net Market", "id": 134, "Longitude": 9.18951, "label": "Milan"}, {"Internal": 1, "Latitude": 47.36667, "Country": "Switzerland", "type": "On-Net and Off-Net Market", "id": 135, "Longitude": 8.55, "label": "Zurich"}, {"Internal": 1, "Latitude": 45.81444, "Country": "Croatia", "type": "On-Net and Off-Net Market", "id": 136, "Longitude": 15.97798, "label": "Zagreb"}, {"Internal": 1, "Latitude": 44.40632, "Country": "Italy", "type": "On-Net and Off-Net Market", "id": 137, "Longitude": 8.93386, "label": "Genoa"}, {"Internal": 1, "Latitude": 45.43861, "Country": "Italy", "type": "On-Net and Off-Net Market", "id": 138, "Longitude": 12.32667, "label": "Padua-Venice"}, {"Internal": 1, "Latitude": 46.05108, "Country": "Slovenia", "type": "On-Net and Off-Net Market", "id": 139, "Longitude": 14.50513, "label": "Ljubljana"}, {"Internal": 1, "Latitude": 43.76667, "Country": "Italy", "type": "On-Net and Off-Net Market", "id": 140, "Longitude": 11.25, "label": "Florence"}, {"Internal": 1, "Latitude": 44.49381, "Country": "Italy", "type": "On-Net and Off-Net Market", "id": 141, "Longitude": 11.33875, "label": "Bologna"}, {"Internal": 1, "Latitude": 52.52437, "Country": "Germany", "type": "On-Net and Off-Net Market", "id": 142, "Longitude": 13.41053, "label": "Berlin"}, {"Internal": 1, "Latitude": 53.55, "Country": "Germany", "type": "On-Net and Off-Net Market", "id": 143, "Longitude": 10.0, "label": "Hamburg"}, {"hyperedge": 1, "Internal": 1, "id": 144, "label": "None"}, {"Internal": 1, "Latitude": 41.03399, "Country": "United States", "type": "On-Net and Off-Net Market", "id": 145, "Longitude": -73.76291, "label": "White Plains"}, {"Internal": 1, "Latitude": 39.29038, "Country": "United States", "type": "On-Net and Off-Net Market", "id": 146, "Longitude": -76.61219, "label": "Baltimore"}, {"hyperedge": 1, "Internal": 1, "id": 147, "label": "None"}, {"hyperedge": 1, "Internal": 1, "id": 148, "label": "None"}, {"hyperedge": 1, "Internal": 1, "id": 149, "label": "None"}, {"hyperedge": 1, "Internal": 1, "id": 150, "label": "None"}, {"Internal": 1, "Latitude": 40.73566, "Country": "United States", "type": "On-Net and Off-Net Market", "id": 151, "Longitude": -74.17237, "label": "Newark"}, {"Internal": 1, "Latitude": 39.95234, "Country": "United States", "type": "On-Net and Off-Net Market", "id": 152, "Longitude": -75.16379, "label": "Philadelphia"}, {"Internal": 1, "Latitude": 40.2737, "Country": "United States", "type": "On-Net and Off-Net Market", "id": 153, "Longitude": -76.88442, "label": "Harrisburg"}, {"Internal": 1, "Latitude": 38.89511, "Country": "United States", "type": "On-Net and Off-Net Market with Cogent Data Center(s)", "id": 154, "Longitude": -77.03637, "label": "Washington"}, {"Internal": 1, "Latitude": 42.35843, "Country": "United States", "type": "On-Net and Off-Net Market with Cogent Data Center(s)", "id": 155, "Longitude": -71.05977, "label": "Boston"}, {"Internal": 1, "Latitude": 41.82399, "Country": "United States", "type": "On-Net and Off-Net Market", "id": 156, "Longitude": -71.41283, "label": "Providence"}, {"Internal": 1, "Latitude": 41.05343, "Country": "United States", "type": "On-Net and Off-Net Market", "id": 157, "Longitude": -73.53873, "label": "Stamford"}, {"Internal": 1, "Latitude": 40.71427, "Country": "United States", "type": "On-Net and Off-Net Market with Cogent Data Center(s)", "id": 158, "Longitude": -74.00597, "label": "New York"}, {"Internal": 1, "Latitude": 38.96955, "Country": "United States", "type": "On-Net and Off-Net Market with Cogent Data Center(s)", "id": 159, "Longitude": -77.3861, "label": "Herndon"}, {"Internal": 1, "Latitude": 40.44062, "Country": "United States", "type": "On-Net and Off-Net Market with Cogent Data Center(s)", "id": 160, "Longitude": -79.99589, "label": "Pittsburgh"}, {"Internal": 1, "Latitude": 50.93333, "Country": "Germany", "type": "On-Net and Off-Net Market", "id": 161, "Longitude": 6.95, "label": "Cologne"}, {"Internal": 1, "Latitude": 51.22172, "Country": "Germany", "type": "On-Net and Off-Net Market", "id": 162, "Longitude": 6.77616, "label": "Dusseldorf"}, {"Internal": 1, "Latitude": 52.37403, "Country": "Netherlands", "type": "On-Net and Off-Net Market", "id": 163, "Longitude": 4.88969, "label": "Amsterdam"}, {"Internal": 1, "Latitude": 52.2, "Country": "United Kingdom", "type": "On-Net and Off-Net Market", "id": 164, "Longitude": 0.11667, "label": "Cambridge"}, {"Internal": 1, "Latitude": 51.50853, "Country": "United Kingdom", "type": "On-Net and Off-Net Market", "id": 165, "Longitude": -0.12574, "label": "London"}, {"Internal": 1, "Latitude": 51.5, "Country": "United Kingdom", "type": "On-Net and Off-Net Market", "id": 166, "Longitude": -0.58333, "label": "Slough"}, {"Internal": 1, "Latitude": 51.45, "Country": "Germany", "type": "On-Net and Off-Net Market", "id": 167, "Longitude": 7.01667, "label": "Essen"}, {"Internal": 1, "Latitude": 51.51667, "Country": "Germany", "type": "On-Net and Off-Net Market", "id": 168, "Longitude": 7.45, "label": "Dortmund"}, {"Internal": 1, "Latitude": 51.96236, "Country": "Germany", "type": "On-Net and Off-Net Market", "id": 169, "Longitude": 7.62571, "label": "Munster"}, {"Internal": 1, "Latitude": 51.9225, "Country": "Netherlands", "type": "On-Net and Off-Net Market", "id": 170, "Longitude": 4.47917, "label": "Rotterdam"}, {"hyperedge": 1, "Internal": 1, "id": 171, "label": "None"}, {"hyperedge": 1, "Internal": 1, "id": 172, "label": "None"}, {"hyperedge": 1, "Internal": 1, "id": 173, "label": "None"}, {"hyperedge": 1, "Internal": 1, "id": 174, "label": "None"}, {"hyperedge": 1, "Internal": 1, "id": 175, "label": "None"}, {"hyperedge": 1, "Internal": 1, "id": 176, "label": "None"}, {"Internal": 1, "Latitude": 53.34399, "Country": "Ireland", "type": "On-Net and Off-Net Market", "id": 177, "Longitude": -6.26719, "label": "Dublin"}, {"Internal": 1, "Latitude": 47.60621, "Country": "United States", "type": "On-Net and Off-Net Market", "id": 178, "Longitude": -122.33207, "label": "Seattle"}, {"Internal": 1, "Latitude": 45.52345, "Country": "United States", "type": "On-Net and Off-Net Market", "id": 179, "Longitude": -122.67621, "label": "Portland"}, {"Internal": 1, "Latitude": 36.17497, "Country": "United States", "type": "On-Net and Off-Net Market", "id": 180, "Longitude": -115.13722, "label": "Las Vegas"}, {"Internal": 1, "Latitude": 45.50884, "Country": "Canada", "type": "On-Net and Off-Net Market", "id": 181, "Longitude": -73.58781, "label": "Montreal"}, {"Internal": 1, "Latitude": 59.43696, "Country": "Estonia", "type": "On-Net and Off-Net Market", "id": 182, "Longitude": 24.75353, "label": "Tallinn"}, {"Internal": 1, "Latitude": 48.85341, "Country": "France", "type": "On-Net and Off-Net Market", "id": 183, "Longitude": 2.3488, "label": "Paris"}, {"Internal": 1, "Latitude": 50.63333, "Country": "France", "type": "On-Net and Off-Net Market with Cogent Data Center(s)", "id": 184, "Longitude": 3.06667, "label": "Lille"}, {"Internal": 1, "Latitude": 53.07516, "Country": "Germany", "type": "On-Net and Off-Net Market", "id": 185, "Longitude": 8.80777, "label": "Bremen"}, {"Internal": 1, "Latitude": 50.85045, "Country": "Belgium", "type": "On-Net and Off-Net Market", "id": 186, "Longitude": 4.34878, "label": "Brussels"}, {"Internal": 1, "Latitude": 51.21667, "Country": "Belgium", "type": "On-Net and Off-Net Market", "id": 187, "Longitude": 4.41667, "label": "Antwerp"}, {"Internal": 1, "Latitude": 41.15, "Country": "Portugal", "type": "On-Net and Off-Net Market", "id": 188, "Longitude": -8.61667, "label": "Porto"}, {"Internal": 1, "Latitude": 60.16952, "Country": "Finland", "type": "On-Net and Off-Net Market", "id": 189, "Longitude": 24.93545, "label": "Helsinki"}, {"Internal": 1, "Latitude": 50.0, "Country": "Ukraine", "type": "On-Net and Off-Net Market", "id": 190, "Longitude": 36.25, "label": "Kharkiv"}, {"Internal": 1, "Latitude": 50.45466, "Country": "Ukraine", "type": "On-Net and Off-Net Market", "id": 191, "Longitude": 30.5238, "label": "Kiev"}, {"Internal": 1, "Latitude": 52.22977, "Country": "Poland", "type": "On-Net and Off-Net Market", "id": 192, "Longitude": 21.01178, "label": "Warsaw"}, {"Internal": 1, "Latitude": 50.08333, "Country": "Poland", "type": "On-Net and Off-Net Market", "id": 193, "Longitude": 19.91667, "label": "Krakow"}, {"Internal": 1, "Latitude": 49.19522, "Country": "Czech Republic", "type": "On-Net and Off-Net Market", "id": 194, "Longitude": 16.60796, "label": "Brno"}, {"Internal": 1, "Latitude": 52.18935, "Country": "United Kingdom", "type": "On-Net and Off-Net Market", "id": 195, "Longitude": -2.22001, "label": "Worcester"}, {"Internal": 1, "Latitude": 42.65258, "Country": "United States", "type": "On-Net and Off-Net Market", "id": 196, "Longitude": -73.75623, "label": "Albany"}], "links": [{"id": "e62", "key": 0, "capacity": 1000.0, "source": 0, "target": 176}, {"id": "e61", "key": 0, "capacity": 1000.0, "source": 0, "target": 9}, {"id": "e59", "key": 0, "capacity": 1000.0, "source": 1, "target": 8}, {"id": "e64", "key": 0, "capacity": 1000.0, "source": 1, "target": 176}, {"id": "e63", "key": 0, "capacity": 1000.0, "source": 1, "target": 114}, {"id": "e65", "key": 0, "capacity": 1000.0, "source": 1, "target": 116}, {"id": "e66", "key": 0, "capacity": 1000.0, "source": 1, "target": 175}, {"id": "e50", "key": 0, "capacity": 1000.0, "source": 2, "target": 76}, {"id": "e49", "key": 0, "capacity": 1000.0, "source": 2, "target": 77}, {"id": "e51", "key": 0, "capacity": 1000.0, "source": 3, "target": 4}, {"id": "e52", "key": 0, "capacity": 1000.0, "source": 3, "target": 77}, {"id": "e51", "key": 0, "capacity": 1000.0, "source": 4, "target": 3}, {"id": "e54", "key": 0, "capacity": 1000.0, "source": 4, "target": 6}, {"id": "e53", "key": 0, "capacity": 1000.0, "source": 4, "target": 135}, {"id": "e11", "key": 0, "capacity": 1000.0, "source": 5, "target": 131}, {"id": "e55", "key": 0, "capacity": 1000.0, "source": 5, "target": 6}, {"id": "e54", "key": 0, "capacity": 1000.0, "source": 6, "target": 4}, {"id": "e55", "key": 0, "capacity": 1000.0, "source": 6, "target": 5}, {"id": "e56", "key": 0, "capacity": 1000.0, "source": 6, "target": 7}, {"id": "e56", "key": 0, "capacity": 1000.0, "source": 7, "target": 6}, {"id": "e57", "key": 0, "capacity": 1000.0, "source": 7, "target": 8}, {"id": "e58", "key": 0, "capacity": 1000.0, "source": 7, "target": 174}, {"id": "e59", "key": 0, "capacity": 1000.0, "source": 8, "target": 1}, {"id": "e57", "key": 0, "capacity": 1000.0, "source": 8, "target": 7}, {"id": "e7", "key": 0, "capacity": 1000.0, "source": 8, "target": 194}, {"id": "e3", "key": 0, "capacity": 1000.0, "source": 8, "target": 191}, {"id": "e60", "key": 0, "capacity": 1000.0, "source": 8, "target": 9}, {"id": "e61", "key": 0, "capacity": 1000.0, "source": 9, "target": 0}, {"id": "e60", "key": 0, "capacity": 1000.0, "source": 9, "target": 8}, {"id": "e180", "key": 0, "capacity": 1000.0, "source": 10, "target": 11}, {"id": "e178", "key": 0, "capacity": 1000.0, "source": 10, "target": 13}, {"id": "e180", "key": 0, "capacity": 1000.0, "source": 11, "target": 10}, {"id": "e181", "key": 0, "capacity": 1000.0, "source": 11, "target": 16}, {"id": "e172", "key": 0, "capacity": 1000.0, "source": 12, "target": 32}, {"id": "e176", "key": 0, "capacity": 1000.0, "source": 12, "target": 13}, {"id": "e174", "key": 0, "capacity": 1000.0, "source": 12, "target": 30}, {"id": "e178", "key": 0, "capacity": 1000.0, "source": 13, "target": 10}, {"id": "e176", "key": 0, "capacity": 1000.0, "source": 13, "target": 12}, {"id": "e179", "key": 0, "capacity": 1000.0, "source": 13, "target": 16}, {"id": "e177", "key": 0, "capacity": 1000.0, "source": 13, "target": 15}, {"id": "e183", "key": 0, "capacity": 1000.0, "source": 14, "target": 64}, {"id": "e185", "key": 0, "capacity": 1000.0, "source": 14, "target": 129}, {"id": "e184", "key": 0, "capacity": 1000.0, "source": 14, "target": 15}, {"id": "e177", "key": 0, "capacity": 1000.0, "source": 15, "target": 13}, {"id": "e184", "key": 0, "capacity": 1000.0, "source": 15, "target": 14}, {"id": "e181", "key": 0, "capacity": 1000.0, "source": 16, "target": 11}, {"id": "e179", "key": 0, "capacity": 1000.0, "source": 16, "target": 13}, {"id": "e182", "key": 0, "capacity": 1000.0, "source": 16, "target": 17}, {"id": "e182", "key": 0, "capacity": 1000.0, "source": 17, "target": 16}, {"id": "e186", "key": 0, "capacity": 1000.0, "source": 18, "target": 19}, {"id": "e175", "key": 0, "capacity": 1000.0, "source": 18, "target": 30}, {"id": "e186", "key": 0, "capacity": 1000.0, "source": 19, "target": 18}, {"id": "e187", "key": 0, "capacity": 1000.0, "source": 19, "target": 89}, {"id": "e188", "key": 0, "capacity": 1000.0, "source": 19, "target": 68}, {"id": "e189", "key": 0, "capacity": 1000.0, "source": 19, "target": 82}, {"id": "e124", "key": 0, "capacity": 1000.0, "source": 20, "target": 21}, {"id": "e125", "key": 0, "capacity": 1000.0, "source": 20, "target": 23}, {"id": "e124", "key": 0, "capacity": 1000.0, "source": 21, "target": 20}, {"id": "e123", "key": 0, "capacity": 1000.0, "source": 21, "target": 26}, {"id": "e127", "key": 0, "capacity": 1000.0, "source": 22, "target": 188}, {"id": "e126", "key": 0, "capacity": 1000.0, "source": 22, "target": 23}, {"id": "e125", "key": 0, "capacity": 1000.0, "source": 23, "target": 20}, {"id": "e126", "key": 0, "capacity": 1000.0, "source": 23, "target": 22}, {"id": "e119", "key": 0, "capacity": 1000.0, "source": 24, "target": 27}, {"id": "e118", "key": 0, "capacity": 1000.0, "source": 25, "target": 171}, {"id": "e117", "key": 0, "capacity": 1000.0, "source": 25, "target": 55}, {"id": "e123", "key": 0, "capacity": 1000.0, "source": 26, "target": 21}, {"id": "e120", "key": 0, "capacity": 1000.0, "source": 26, "target": 27}, {"id": "e122", "key": 0, "capacity": 1000.0, "source": 26, "target": 28}, {"id": "e121", "key": 0, "capacity": 1000.0, "source": 26, "target": 29}, {"id": "e119", "key": 0, "capacity": 1000.0, "source": 27, "target": 24}, {"id": "e120", "key": 0, "capacity": 1000.0, "source": 27, "target": 26}, {"id": "e122", "key": 0, "capacity": 1000.0, "source": 28, "target": 26}, {"id": "e128", "key": 0, "capacity": 1000.0, "source": 28, "target": 51}, {"id": "e129", "key": 0, "capacity": 1000.0, "source": 28, "target": 54}, {"id": "e121", "key": 0, "capacity": 1000.0, "source": 29, "target": 26}, {"id": "e103", "key": 0, "capacity": 1000.0, "source": 29, "target": 78}, {"id": "e174", "key": 0, "capacity": 1000.0, "source": 30, "target": 12}, {"id": "e175", "key": 0, "capacity": 1000.0, "source": 30, "target": 18}, {"id": "e173", "key": 0, "capacity": 1000.0, "source": 30, "target": 35}, {"id": "e164", "key": 0, "capacity": 1000.0, "source": 31, "target": 37}, {"id": "e172", "key": 0, "capacity": 1000.0, "source": 32, "target": 12}, {"id": "e171", "key": 0, "capacity": 1000.0, "source": 32, "target": 33}, {"id": "e166", "key": 0, "capacity": 1000.0, "source": 32, "target": 37}, {"id": "e171", "key": 0, "capacity": 1000.0, "source": 33, "target": 32}, {"id": "e168", "key": 0, "capacity": 1000.0, "source": 34, "target": 37}, {"id": "e173", "key": 0, "capacity": 1000.0, "source": 35, "target": 30}, {"id": "e167", "key": 0, "capacity": 1000.0, "source": 35, "target": 37}, {"id": "e170", "key": 0, "capacity": 1000.0, "source": 36, "target": 38}, {"id": "e169", "key": 0, "capacity": 1000.0, "source": 36, "target": 39}, {"id": "e164", "key": 0, "capacity": 1000.0, "source": 37, "target": 31}, {"id": "e166", "key": 0, "capacity": 1000.0, "source": 37, "target": 32}, {"id": "e168", "key": 0, "capacity": 1000.0, "source": 37, "target": 34}, {"id": "e167", "key": 0, "capacity": 1000.0, "source": 37, "target": 35}, {"id": "e163", "key": 0, "capacity": 1000.0, "source": 37, "target": 160}, {"id": "e165", "key": 0, "capacity": 1000.0, "source": 37, "target": 38}, {"id": "e170", "key": 0, "capacity": 1000.0, "source": 38, "target": 36}, {"id": "e165", "key": 0, "capacity": 1000.0, "source": 38, "target": 37}, {"id": "e147", "key": 0, "capacity": 1000.0, "source": 38, "target": 196}, {"id": "e169", "key": 0, "capacity": 1000.0, "source": 39, "target": 36}, {"id": "e145", "key": 0, "capacity": 1000.0, "source": 39, "target": 181}, {"id": "e19", "key": 0, "capacity": 1000.0, "source": 40, "target": 41}, {"id": "e17", "key": 0, "capacity": 1000.0, "source": 40, "target": 42}, {"id": "e19", "key": 0, "capacity": 1000.0, "source": 41, "target": 40}, {"id": "e18", "key": 0, "capacity": 1000.0, "source": 41, "target": 43}, {"id": "e1", "key": 0, "capacity": 1000.0, "source": 41, "target": 189}, {"id": "e17", "key": 0, "capacity": 1000.0, "source": 42, "target": 40}, {"id": "e16", "key": 0, "capacity": 1000.0, "source": 42, "target": 43}, {"id": "e14", "key": 1, "capacity": 1000.0, "source": 42, "target": 143}, {"id": "e18", "key": 0, "capacity": 1000.0, "source": 43, "target": 41}, {"id": "e16", "key": 0, "capacity": 1000.0, "source": 43, "target": 42}, {"id": "e23", "key": 0, "capacity": 1000.0, "source": 44, "target": 45}, {"id": "e22", "key": 0, "capacity": 1000.0, "source": 44, "target": 47}, {"id": "e23", "key": 0, "capacity": 1000.0, "source": 45, "target": 44}, {"id": "e24", "key": 0, "capacity": 1000.0, "source": 45, "target": 48}, {"id": "e25", "key": 0, "capacity": 1000.0, "source": 45, "target": 164}, {"id": "e20", "key": 0, "capacity": 1000.0, "source": 46, "target": 49}, {"id": "e21", "key": 0, "capacity": 1000.0, "source": 46, "target": 47}, {"id": "e22", "key": 0, "capacity": 1000.0, "source": 47, "target": 44}, {"id": "e21", "key": 0, "capacity": 1000.0, "source": 47, "target": 46}, {"id": "e24", "key": 0, "capacity": 1000.0, "source": 48, "target": 45}, {"id": "e27", "key": 0, "capacity": 1000.0, "source": 48, "target": 155}, {"id": "e26", "key": 0, "capacity": 1000.0, "source": 48, "target": 181}, {"id": "e20", "key": 0, "capacity": 1000.0, "source": 49, "target": 46}, {"id": "e28", "key": 0, "capacity": 1000.0, "source": 49, "target": 177}, {"id": "e29", "key": 0, "capacity": 1000.0, "source": 49, "target": 147}, {"id": "e30", "key": 0, "capacity": 1000.0, "source": 49, "target": 165}, {"id": "e137", "key": 0, "capacity": 1000.0, "source": 50, "target": 57}, {"id": "e138", "key": 0, "capacity": 1000.0, "source": 50, "target": 51}, {"id": "e128", "key": 0, "capacity": 1000.0, "source": 51, "target": 28}, {"id": "e138", "key": 0, "capacity": 1000.0, "source": 51, "target": 50}, {"id": "e139", "key": 0, "capacity": 1000.0, "source": 51, "target": 188}, {"id": "e132", "key": 0, "capacity": 1000.0, "source": 52, "target": 53}, {"id": "e131", "key": 0, "capacity": 1000.0, "source": 52, "target": 55}, {"id": "e132", "key": 0, "capacity": 1000.0, "source": 53, "target": 52}, {"id": "e133", "key": 0, "capacity": 1000.0, "source": 53, "target": 58}, {"id": "e129", "key": 0, "capacity": 1000.0, "source": 54, "target": 28}, {"id": "e130", "key": 0, "capacity": 1000.0, "source": 54, "target": 55}, {"id": "e117", "key": 0, "capacity": 1000.0, "source": 55, "target": 25}, {"id": "e131", "key": 0, "capacity": 1000.0, "source": 55, "target": 52}, {"id": "e130", "key": 0, "capacity": 1000.0, "source": 55, "target": 54}, {"id": "e136", "key": 0, "capacity": 1000.0, "source": 56, "target": 57}, {"id": "e135", "key": 0, "capacity": 1000.0, "source": 56, "target": 59}, {"id": "e137", "key": 0, "capacity": 1000.0, "source": 57, "target": 50}, {"id": "e136", "key": 0, "capacity": 1000.0, "source": 57, "target": 56}, {"id": "e133", "key": 0, "capacity": 1000.0, "source": 58, "target": 53}, {"id": "e134", "key": 0, "capacity": 1000.0, "source": 58, "target": 59}, {"id": "e135", "key": 0, "capacity": 1000.0, "source": 59, "target": 56}, {"id": "e134", "key": 0, "capacity": 1000.0, "source": 59, "target": 58}, {"id": "e216", "key": 0, "capacity": 1000.0, "source": 60, "target": 61}, {"id": "e215", "key": 0, "capacity": 1000.0, "source": 60, "target": 69}, {"id": "e216", "key": 0, "capacity": 1000.0, "source": 61, "target": 60}, {"id": "e218", "key": 0, "capacity": 1000.0, "source": 61, "target": 128}, {"id": "e217", "key": 0, "capacity": 1000.0, "source": 61, "target": 122}, {"id": "e204", "key": 0, "capacity": 1000.0, "source": 62, "target": 144}, {"id": "e201", "key": 0, "capacity": 1000.0, "source": 62, "target": 86}, {"id": "e205", "key": 0, "capacity": 1000.0, "source": 62, "target": 63}, {"id": "e205", "key": 0, "capacity": 1000.0, "source": 63, "target": 62}, {"id": "e207", "key": 0, "capacity": 1000.0, "source": 63, "target": 68}, {"id": "e206", "key": 0, "capacity": 1000.0, "source": 63, "target": 149}, {"id": "e183", "key": 0, "capacity": 1000.0, "source": 64, "target": 14}, {"id": "e208", "key": 0, "capacity": 1000.0, "source": 64, "target": 65}, {"id": "e209", "key": 0, "capacity": 1000.0, "source": 64, "target": 67}, {"id": "e210", "key": 0, "capacity": 1000.0, "source": 64, "target": 68}, {"id": "e208", "key": 0, "capacity": 1000.0, "source": 65, "target": 64}, {"id": "e211", "key": 0, "capacity": 1000.0, "source": 65, "target": 66}, {"id": "e211", "key": 0, "capacity": 1000.0, "source": 66, "target": 65}, {"id": "e212", "key": 0, "capacity": 1000.0, "source": 66, "target": 67}, {"id": "e209", "key": 0, "capacity": 1000.0, "source": 67, "target": 64}, {"id": "e212", "key": 0, "capacity": 1000.0, "source": 67, "target": 66}, {"id": "e213", "key": 0, "capacity": 1000.0, "source": 67, "target": 69}, {"id": "e188", "key": 0, "capacity": 1000.0, "source": 68, "target": 19}, {"id": "e207", "key": 0, "capacity": 1000.0, "source": 68, "target": 63}, {"id": "e210", "key": 0, "capacity": 1000.0, "source": 68, "target": 64}, {"id": "e215", "key": 0, "capacity": 1000.0, "source": 69, "target": 60}, {"id": "e213", "key": 0, "capacity": 1000.0, "source": 69, "target": 67}, {"id": "e214", "key": 0, "capacity": 1000.0, "source": 69, "target": 144}, {"id": "e100", "key": 0, "capacity": 1000.0, "source": 70, "target": 183}, {"id": "e101", "key": 0, "capacity": 1000.0, "source": 70, "target": 79}, {"id": "e98", "key": 0, "capacity": 1000.0, "source": 71, "target": 72}, {"id": "e99", "key": 0, "capacity": 1000.0, "source": 71, "target": 79}, {"id": "e98", "key": 0, "capacity": 1000.0, "source": 72, "target": 71}, {"id": "e97", "key": 0, "capacity": 1000.0, "source": 72, "target": 73}, {"id": "e97", "key": 0, "capacity": 1000.0, "source": 73, "target": 72}, {"id": "e95", "key": 0, "capacity": 1000.0, "source": 73, "target": 74}, {"id": "e95", "key": 0, "capacity": 1000.0, "source": 74, "target": 73}, {"id": "e96", "key": 0, "capacity": 1000.0, "source": 74, "target": 183}, {"id": "e94", "key": 0, "capacity": 1000.0, "source": 75, "target": 173}, {"id": "e93", "key": 0, "capacity": 1000.0, "source": 75, "target": 183}, {"id": "e50", "key": 0, "capacity": 1000.0, "source": 76, "target": 2}, {"id": "e92", "key": 0, "capacity": 1000.0, "source": 76, "target": 173}, {"id": "e49", "key": 0, "capacity": 1000.0, "source": 77, "target": 2}, {"id": "e52", "key": 0, "capacity": 1000.0, "source": 77, "target": 3}, {"id": "e91", "key": 0, "capacity": 1000.0, "source": 77, "target": 152}, {"id": "e47", "key": 0, "capacity": 1000.0, "source": 77, "target": 162}, {"id": "e90", "key": 0, "capacity": 1000.0, "source": 77, "target": 133}, {"id": "e103", "key": 0, "capacity": 1000.0, "source": 78, "target": 29}, {"id": "e104", "key": 0, "capacity": 1000.0, "source": 78, "target": 94}, {"id": "e102", "key": 0, "capacity": 1000.0, "source": 78, "target": 79}, {"id": "e101", "key": 0, "capacity": 1000.0, "source": 79, "target": 70}, {"id": "e99", "key": 0, "capacity": 1000.0, "source": 79, "target": 71}, {"id": "e102", "key": 0, "capacity": 1000.0, "source": 79, "target": 78}, {"id": "e202", "key": 1, "capacity": 1000.0, "source": 80, "target": 81}, {"id": "e200", "key": 0, "capacity": 1000.0, "source": 80, "target": 86}, {"id": "e199", "key": 0, "capacity": 1000.0, "source": 80, "target": 87}, {"id": "e202", "key": 1, "capacity": 1000.0, "source": 81, "target": 80}, {"id": "e189", "key": 0, "capacity": 1000.0, "source": 82, "target": 19}, {"id": "e194", "key": 0, "capacity": 1000.0, "source": 82, "target": 88}, {"id": "e192", "key": 0, "capacity": 1000.0, "source": 82, "target": 83}, {"id": "e195", "key": 0, "capacity": 1000.0, "source": 82, "target": 150}, {"id": "e192", "key": 0, "capacity": 1000.0, "source": 83, "target": 82}, {"id": "e193", "key": 0, "capacity": 1000.0, "source": 83, "target": 148}, {"id": "e191", "key": 0, "capacity": 1000.0, "source": 84, "target": 148}, {"id": "e190", "key": 0, "capacity": 1000.0, "source": 84, "target": 85}, {"id": "e190", "key": 0, "capacity": 1000.0, "source": 85, "target": 84}, {"id": "e201", "key": 0, "capacity": 1000.0, "source": 86, "target": 62}, {"id": "e200", "key": 0, "capacity": 1000.0, "source": 86, "target": 80}, {"id": "e198", "key": 0, "capacity": 1000.0, "source": 86, "target": 87}, {"id": "e199", "key": 0, "capacity": 1000.0, "source": 87, "target": 80}, {"id": "e198", "key": 0, "capacity": 1000.0, "source": 87, "target": 86}, {"id": "e197", "key": 0, "capacity": 1000.0, "source": 87, "target": 88}, {"id": "e194", "key": 0, "capacity": 1000.0, "source": 88, "target": 82}, {"id": "e197", "key": 0, "capacity": 1000.0, "source": 88, "target": 87}, {"id": "e187", "key": 0, "capacity": 1000.0, "source": 89, "target": 19}, {"id": "e196", "key": 0, "capacity": 1000.0, "source": 89, "target": 150}, {"id": "e111", "key": 0, "capacity": 1000.0, "source": 90, "target": 172}, {"id": "e113", "key": 0, "capacity": 1000.0, "source": 91, "target": 99}, {"id": "e112", "key": 0, "capacity": 1000.0, "source": 91, "target": 92}, {"id": "e112", "key": 0, "capacity": 1000.0, "source": 92, "target": 91}, {"id": "e109", "key": 0, "capacity": 1000.0, "source": 92, "target": 96}, {"id": "e115", "key": 0, "capacity": 1000.0, "source": 92, "target": 93}, {"id": "e114", "key": 0, "capacity": 1000.0, "source": 92, "target": 183}, {"id": "e115", "key": 0, "capacity": 1000.0, "source": 93, "target": 92}, {"id": "e104", "key": 0, "capacity": 1000.0, "source": 94, "target": 78}, {"id": "e105", "key": 0, "capacity": 1000.0, "source": 94, "target": 171}, {"id": "e106", "key": 0, "capacity": 1000.0, "source": 95, "target": 96}, {"id": "e107", "key": 0, "capacity": 1000.0, "source": 95, "target": 171}, {"id": "e109", "key": 0, "capacity": 1000.0, "source": 96, "target": 92}, {"id": "e106", "key": 0, "capacity": 1000.0, "source": 96, "target": 95}, {"id": "e108", "key": 0, "capacity": 1000.0, "source": 96, "target": 97}, {"id": "e108", "key": 0, "capacity": 1000.0, "source": 97, "target": 96}, {"id": "e110", "key": 0, "capacity": 1000.0, "source": 97, "target": 172}, {"id": "e8", "key": 0, "capacity": 1000.0, "source": 98, "target": 194}, {"id": "e9", "key": 0, "capacity": 1000.0, "source": 98, "target": 131}, {"id": "e113", "key": 0, "capacity": 1000.0, "source": 99, "target": 91}, {"id": "e116", "key": 0, "capacity": 1000.0, "source": 99, "target": 100}, {"id": "e116", "key": 0, "capacity": 1000.0, "source": 100, "target": 99}, {"id": "e88", "key": 0, "capacity": 1000.0, "source": 100, "target": 132}, {"id": "e236", "key": 0, "capacity": 1000.0, "source": 101, "target": 104}, {"id": "e238", "key": 0, "capacity": 1000.0, "source": 101, "target": 180}, {"id": "e237", "key": 0, "capacity": 1000.0, "source": 101, "target": 102}, {"id": "e237", "key": 0, "capacity": 1000.0, "source": 102, "target": 101}, {"LinkLabel": "Leased Wavelength/Managed Service", "key": 0, "capacity": 1000.0, "source": 102, "target": 109}, {"LinkLabel": "Leased Wavelength/Managed Service", "key": 0, "capacity": 1000.0, "source": 103, "target": 104}, {"LinkLabel": "Leased Wavelength/Managed Service", "key": 0, "capacity": 1000.0, "source": 103, "target": 106}, {"id": "e236", "key": 0, "capacity": 1000.0, "source": 104, "target": 101}, {"LinkLabel": "Leased Wavelength/Managed Service", "key": 0, "capacity": 1000.0, "source": 104, "target": 103}, {"id": "e232", "key": 0, "capacity": 1000.0, "source": 105, "target": 106}, {"id": "e230", "key": 0, "capacity": 1000.0, "source": 105, "target": 107}, {"id": "e233", "key": 0, "capacity": 1000.0, "source": 105, "target": 179}, {"LinkLabel": "Leased Wavelength/Managed Service", "key": 0, "capacity": 1000.0, "source": 106, "target": 103}, {"id": "e232", "key": 0, "capacity": 1000.0, "source": 106, "target": 105}, {"id": "e230", "key": 0, "capacity": 1000.0, "source": 107, "target": 105}, {"id": "e229", "key": 0, "capacity": 1000.0, "source": 107, "target": 108}, {"id": "e228", "key": 0, "capacity": 1000.0, "source": 107, "target": 129}, {"id": "e229", "key": 0, "capacity": 1000.0, "source": 108, "target": 107}, {"id": "e231", "key": 0, "capacity": 1000.0, "source": 108, "target": 179}, {"LinkLabel": "Leased Wavelength/Managed Service", "key": 0, "capacity": 1000.0, "source": 109, "target": 102}, {"LinkLabel": "Leased Wavelength/Managed Service", "key": 0, "capacity": 1000.0, "source": 109, "target": 110}, {"LinkLabel": "Leased Wavelength/Managed Service", "key": 0, "capacity": 1000.0, "source": 110, "target": 109}, {"id": "e225", "key": 0, "capacity": 1000.0, "source": 110, "target": 128}, {"id": "e75", "key": 0, "capacity": 1000.0, "source": 111, "target": 112}, {"id": "e77", "key": 0, "capacity": 1000.0, "source": 111, "target": 140}, {"id": "e75", "key": 0, "capacity": 1000.0, "source": 112, "target": 111}, {"id": "e76", "key": 0, "capacity": 1000.0, "source": 112, "target": 137}, {"id": "e67", "key": 0, "capacity": 1000.0, "source": 113, "target": 114}, {"id": "e4", "key": 0, "capacity": 1000.0, "source": 113, "target": 191}, {"id": "e63", "key": 0, "capacity": 1000.0, "source": 114, "target": 1}, {"id": "e67", "key": 0, "capacity": 1000.0, "source": 114, "target": 113}, {"id": "e68", "key": 0, "capacity": 1000.0, "source": 115, "target": 116}, {"id": "e69", "key": 0, "capacity": 1000.0, "source": 115, "target": 118}, {"id": "e65", "key": 0, "capacity": 1000.0, "source": 116, "target": 1}, {"id": "e68", "key": 0, "capacity": 1000.0, "source": 116, "target": 115}, {"id": "e71", "key": 0, "capacity": 1000.0, "source": 117, "target": 120}, {"id": "e70", "key": 0, "capacity": 1000.0, "source": 117, "target": 118}, {"id": "e69", "key": 0, "capacity": 1000.0, "source": 118, "target": 115}, {"id": "e70", "key": 0, "capacity": 1000.0, "source": 118, "target": 117}, {"id": "e73", "key": 0, "capacity": 1000.0, "source": 119, "target": 176}, {"id": "e74", "key": 0, "capacity": 1000.0, "source": 119, "target": 175}, {"id": "e71", "key": 0, "capacity": 1000.0, "source": 120, "target": 117}, {"id": "e72", "key": 0, "capacity": 1000.0, "source": 120, "target": 175}, {"id": "e219", "key": 0, "capacity": 1000.0, "source": 121, "target": 122}, {"id": "e220", "key": 0, "capacity": 1000.0, "source": 121, "target": 124}, {"id": "e217", "key": 0, "capacity": 1000.0, "source": 122, "target": 61}, {"id": "e219", "key": 0, "capacity": 1000.0, "source": 122, "target": 121}, {"id": "e221", "key": 0, "capacity": 1000.0, "source": 123, "target": 124}, {"id": "e223", "key": 0, "capacity": 1000.0, "source": 123, "target": 125}, {"id": "e222", "key": 0, "capacity": 1000.0, "source": 123, "target": 126}, {"id": "e220", "key": 0, "capacity": 1000.0, "source": 124, "target": 121}, {"id": "e221", "key": 0, "capacity": 1000.0, "source": 124, "target": 123}, {"id": "e223", "key": 0, "capacity": 1000.0, "source": 125, "target": 123}, {"id": "e222", "key": 0, "capacity": 1000.0, "source": 126, "target": 123}, {"id": "e224", "key": 0, "capacity": 1000.0, "source": 127, "target": 128}, {"id": "e226", "key": 0, "capacity": 1000.0, "source": 127, "target": 130}, {"id": "e218", "key": 0, "capacity": 1000.0, "source": 128, "target": 61}, {"id": "e225", "key": 0, "capacity": 1000.0, "source": 128, "target": 110}, {"id": "e224", "key": 0, "capacity": 1000.0, "source": 128, "target": 127}, {"id": "e185", "key": 0, "capacity": 1000.0, "source": 129, "target": 14}, {"id": "e228", "key": 0, "capacity": 1000.0, "source": 129, "target": 107}, {"id": "e227", "key": 0, "capacity": 1000.0, "source": 129, "target": 130}, {"id": "e226", "key": 0, "capacity": 1000.0, "source": 130, "target": 127}, {"id": "e227", "key": 0, "capacity": 1000.0, "source": 130, "target": 129}, {"id": "e11", "key": 0, "capacity": 1000.0, "source": 131, "target": 5}, {"id": "e9", "key": 0, "capacity": 1000.0, "source": 131, "target": 98}, {"id": "e10", "key": 0, "capacity": 1000.0, "source": 131, "target": 142}, {"id": "e88", "key": 0, "capacity": 1000.0, "source": 132, "target": 100}, {"id": "e87", "key": 0, "capacity": 1000.0, "source": 132, "target": 135}, {"id": "e90", "key": 0, "capacity": 1000.0, "source": 133, "target": 77}, {"id": "e89", "key": 0, "capacity": 1000.0, "source": 133, "target": 173}, {"id": "e84", "key": 0, "capacity": 1000.0, "source": 134, "target": 137}, {"id": "e80", "key": 0, "capacity": 1000.0, "source": 134, "target": 138}, {"id": "e86", "key": 0, "capacity": 1000.0, "source": 134, "target": 135}, {"id": "e53", "key": 0, "capacity": 1000.0, "source": 135, "target": 4}, {"id": "e87", "key": 0, "capacity": 1000.0, "source": 135, "target": 132}, {"id": "e86", "key": 0, "capacity": 1000.0, "source": 135, "target": 134}, {"id": "e83", "key": 0, "capacity": 1000.0, "source": 136, "target": 139}, {"id": "e76", "key": 0, "capacity": 1000.0, "source": 137, "target": 112}, {"id": "e84", "key": 0, "capacity": 1000.0, "source": 137, "target": 134}, {"id": "e85", "key": 0, "capacity": 1000.0, "source": 137, "target": 172}, {"id": "e80", "key": 0, "capacity": 1000.0, "source": 138, "target": 134}, {"id": "e81", "key": 0, "capacity": 1000.0, "source": 138, "target": 174}, {"id": "e79", "key": 0, "capacity": 1000.0, "source": 138, "target": 141}, {"id": "e83", "key": 0, "capacity": 1000.0, "source": 139, "target": 136}, {"id": "e82", "key": 0, "capacity": 1000.0, "source": 139, "target": 174}, {"id": "e77", "key": 0, "capacity": 1000.0, "source": 140, "target": 111}, {"id": "e78", "key": 0, "capacity": 1000.0, "source": 140, "target": 141}, {"id": "e79", "key": 0, "capacity": 1000.0, "source": 141, "target": 138}, {"id": "e78", "key": 0, "capacity": 1000.0, "source": 141, "target": 140}, {"id": "e10", "key": 0, "capacity": 1000.0, "source": 142, "target": 131}, {"id": "e12", "key": 0, "capacity": 1000.0, "source": 142, "target": 143}, {"id": "e14", "key": 1, "capacity": 1000.0, "source": 143, "target": 42}, {"id": "e12", "key": 0, "capacity": 1000.0, "source": 143, "target": 142}, {"id": "e15", "key": 0, "capacity": 1000.0, "source": 143, "target": 185}, {"id": "e204", "key": 0, "capacity": 1000.0, "source": 144, "target": 62}, {"id": "e214", "key": 0, "capacity": 1000.0, "source": 144, "target": 69}, {"id": "e244", "key": 0, "capacity": 1000.0, "source": 144, "target": 149}, {"LinkLabel": "Leased Wavelength/Managed Service", "key": 0, "capacity": 1000.0, "source": 145, "target": 157}, {"id": "e157", "key": 0, "capacity": 1000.0, "source": 146, "target": 152}, {"id": "e162", "key": 0, "capacity": 1000.0, "source": 146, "target": 154}, {"id": "e29", "key": 0, "capacity": 1000.0, "source": 147, "target": 49}, {"id": "e33", "key": 0, "capacity": 1000.0, "source": 147, "target": 166}, {"id": "e242", "key": 0, "capacity": 1000.0, "source": 147, "target": 177}, {"id": "e193", "key": 0, "capacity": 1000.0, "source": 148, "target": 83}, {"id": "e191", "key": 0, "capacity": 1000.0, "source": 148, "target": 84}, {"id": "e160", "key": 0, "capacity": 1000.0, "source": 148, "target": 154}, {"id": "e206", "key": 0, "capacity": 1000.0, "source": 149, "target": 63}, {"id": "e244", "key": 0, "capacity": 1000.0, "source": 149, "target": 144}, {"id": "e243", "key": 0, "capacity": 1000.0, "source": 149, "target": 150}, {"id": "e195", "key": 0, "capacity": 1000.0, "source": 150, "target": 82}, {"id": "e196", "key": 0, "capacity": 1000.0, "source": 150, "target": 89}, {"id": "e243", "key": 0, "capacity": 1000.0, "source": 150, "target": 149}, {"id": "e155", "key": 0, "capacity": 1000.0, "source": 151, "target": 152}, {"id": "e91", "key": 0, "capacity": 1000.0, "source": 152, "target": 77}, {"id": "e157", "key": 0, "capacity": 1000.0, "source": 152, "target": 146}, {"id": "e155", "key": 0, "capacity": 1000.0, "source": 152, "target": 151}, {"id": "e156", "key": 0, "capacity": 1000.0, "source": 152, "target": 153}, {"id": "e156", "key": 0, "capacity": 1000.0, "source": 153, "target": 152}, {"id": "e159", "key": 0, "capacity": 1000.0, "source": 153, "target": 160}, {"id": "e158", "key": 0, "capacity": 1000.0, "source": 153, "target": 154}, {"id": "e162", "key": 0, "capacity": 1000.0, "source": 154, "target": 146}, {"id": "e160", "key": 0, "capacity": 1000.0, "source": 154, "target": 148}, {"id": "e158", "key": 0, "capacity": 1000.0, "source": 154, "target": 153}, {"id": "e144", "key": 0, "capacity": 1000.0, "source": 154, "target": 183}, {"id": "e161", "key": 0, "capacity": 1000.0, "source": 154, "target": 159}, {"id": "e27", "key": 0, "capacity": 1000.0, "source": 155, "target": 48}, {"id": "e150", "key": 0, "capacity": 1000.0, "source": 155, "target": 195}, {"id": "e151", "key": 0, "capacity": 1000.0, "source": 155, "target": 156}, {"id": "e37", "key": 0, "capacity": 1000.0, "source": 155, "target": 165}, {"id": "e151", "key": 0, "capacity": 1000.0, "source": 156, "target": 155}, {"id": "e152", "key": 0, "capacity": 1000.0, "source": 156, "target": 157}, {"LinkLabel": "Leased Wavelength/Managed Service", "key": 0, "capacity": 1000.0, "source": 157, "target": 145}, {"id": "e152", "key": 0, "capacity": 1000.0, "source": 157, "target": 156}, {"LinkLabel": "Leased Wavelength/Managed Service", "key": 0, "capacity": 1000.0, "source": 157, "target": 158}, {"LinkLabel": "Leased Wavelength/Managed Service", "key": 0, "capacity": 1000.0, "source": 158, "target": 157}, {"id": "e38", "key": 0, "capacity": 1000.0, "source": 158, "target": 165}, {"id": "e148", "key": 0, "capacity": 1000.0, "source": 158, "target": 196}, {"id": "e143", "key": 0, "capacity": 1000.0, "source": 158, "target": 183}, {"id": "e161", "key": 0, "capacity": 1000.0, "source": 159, "target": 154}, {"id": "e163", "key": 0, "capacity": 1000.0, "source": 160, "target": 37}, {"id": "e159", "key": 0, "capacity": 1000.0, "source": 160, "target": 153}, {"id": "e48", "key": 0, "capacity": 1000.0, "source": 161, "target": 162}, {"id": "e47", "key": 0, "capacity": 1000.0, "source": 162, "target": 77}, {"id": "e48", "key": 0, "capacity": 1000.0, "source": 162, "target": 161}, {"id": "e41", "key": 0, "capacity": 1000.0, "source": 162, "target": 163}, {"id": "e46", "key": 0, "capacity": 1000.0, "source": 162, "target": 167}, {"id": "e41", "key": 0, "capacity": 1000.0, "source": 163, "target": 162}, {"id": "e42", "key": 0, "capacity": 1000.0, "source": 163, "target": 187}, {"id": "e40", "key": 0, "capacity": 1000.0, "source": 163, "target": 164}, {"id": "e25", "key": 0, "capacity": 1000.0, "source": 164, "target": 45}, {"id": "e40", "key": 0, "capacity": 1000.0, "source": 164, "target": 163}, {"id": "e30", "key": 0, "capacity": 1000.0, "source": 165, "target": 49}, {"id": "e37", "key": 0, "capacity": 1000.0, "source": 165, "target": 155}, {"id": "e38", "key": 0, "capacity": 1000.0, "source": 165, "target": 158}, {"id": "e39", "key": 0, "capacity": 1000.0, "source": 165, "target": 177}, {"id": "e36", "key": 0, "capacity": 1000.0, "source": 165, "target": 181}, {"id": "e35", "key": 0, "capacity": 1000.0, "source": 165, "target": 184}, {"id": "e34", "key": 0, "capacity": 1000.0, "source": 165, "target": 186}, {"id": "e33", "key": 0, "capacity": 1000.0, "source": 166, "target": 147}, {"id": "e31", "key": 0, "capacity": 1000.0, "source": 166, "target": 170}, {"id": "e32", "key": 0, "capacity": 1000.0, "source": 166, "target": 183}, {"id": "e46", "key": 0, "capacity": 1000.0, "source": 167, "target": 162}, {"id": "e45", "key": 0, "capacity": 1000.0, "source": 167, "target": 168}, {"id": "e45", "key": 0, "capacity": 1000.0, "source": 168, "target": 167}, {"id": "e43", "key": 0, "capacity": 1000.0, "source": 168, "target": 169}, {"id": "e43", "key": 0, "capacity": 1000.0, "source": 169, "target": 168}, {"id": "e44", "key": 0, "capacity": 1000.0, "source": 169, "target": 185}, {"id": "e31", "key": 0, "capacity": 1000.0, "source": 170, "target": 166}, {"id": "e118", "key": 0, "capacity": 1000.0, "source": 171, "target": 25}, {"id": "e105", "key": 0, "capacity": 1000.0, "source": 171, "target": 94}, {"id": "e107", "key": 0, "capacity": 1000.0, "source": 171, "target": 95}, {"id": "e111", "key": 0, "capacity": 1000.0, "source": 172, "target": 90}, {"id": "e110", "key": 0, "capacity": 1000.0, "source": 172, "target": 97}, {"id": "e85", "key": 0, "capacity": 1000.0, "source": 172, "target": 137}, {"id": "e94", "key": 0, "capacity": 1000.0, "source": 173, "target": 75}, {"id": "e92", "key": 0, "capacity": 1000.0, "source": 173, "target": 76}, {"id": "e89", "key": 0, "capacity": 1000.0, "source": 173, "target": 133}, {"id": "e58", "key": 0, "capacity": 1000.0, "source": 174, "target": 7}, {"id": "e81", "key": 0, "capacity": 1000.0, "source": 174, "target": 138}, {"id": "e82", "key": 0, "capacity": 1000.0, "source": 174, "target": 139}, {"id": "e66", "key": 0, "capacity": 1000.0, "source": 175, "target": 1}, {"id": "e74", "key": 0, "capacity": 1000.0, "source": 175, "target": 119}, {"id": "e72", "key": 0, "capacity": 1000.0, "source": 175, "target": 120}, {"id": "e62", "key": 0, "capacity": 1000.0, "source": 176, "target": 0}, {"id": "e64", "key": 0, "capacity": 1000.0, "source": 176, "target": 1}, {"id": "e73", "key": 0, "capacity": 1000.0, "source": 176, "target": 119}, {"id": "e28", "key": 0, "capacity": 1000.0, "source": 177, "target": 49}, {"id": "e242", "key": 0, "capacity": 1000.0, "source": 177, "target": 147}, {"id": "e39", "key": 0, "capacity": 1000.0, "source": 177, "target": 165}, {"id": "e241", "key": 0, "capacity": 1000.0, "source": 178, "target": 179}, {"id": "e233", "key": 0, "capacity": 1000.0, "source": 179, "target": 105}, {"id": "e231", "key": 0, "capacity": 1000.0, "source": 179, "target": 108}, {"id": "e241", "key": 0, "capacity": 1000.0, "source": 179, "target": 178}, {"id": "e238", "key": 0, "capacity": 1000.0, "source": 180, "target": 101}, {"id": "e145", "key": 0, "capacity": 1000.0, "source": 181, "target": 39}, {"id": "e26", "key": 0, "capacity": 1000.0, "source": 181, "target": 48}, {"id": "e36", "key": 0, "capacity": 1000.0, "source": 181, "target": 165}, {"id": "e146", "key": 0, "capacity": 1000.0, "source": 181, "target": 196}, {"id": "e0", "key": 0, "capacity": 1000.0, "source": 182, "target": 189}, {"id": "e100", "key": 0, "capacity": 1000.0, "source": 183, "target": 70}, {"id": "e96", "key": 0, "capacity": 1000.0, "source": 183, "target": 74}, {"id": "e93", "key": 0, "capacity": 1000.0, "source": 183, "target": 75}, {"id": "e114", "key": 0, "capacity": 1000.0, "source": 183, "target": 92}, {"id": "e144", "key": 0, "capacity": 1000.0, "source": 183, "target": 154}, {"id": "e143", "key": 0, "capacity": 1000.0, "source": 183, "target": 158}, {"id": "e32", "key": 0, "capacity": 1000.0, "source": 183, "target": 166}, {"id": "e142", "key": 0, "capacity": 1000.0, "source": 183, "target": 184}, {"id": "e141", "key": 0, "capacity": 1000.0, "source": 183, "target": 186}, {"id": "e35", "key": 0, "capacity": 1000.0, "source": 184, "target": 165}, {"id": "e142", "key": 0, "capacity": 1000.0, "source": 184, "target": 183}, {"id": "e15", "key": 0, "capacity": 1000.0, "source": 185, "target": 143}, {"id": "e44", "key": 0, "capacity": 1000.0, "source": 185, "target": 169}, {"id": "e34", "key": 0, "capacity": 1000.0, "source": 186, "target": 165}, {"id": "e141", "key": 0, "capacity": 1000.0, "source": 186, "target": 183}, {"id": "e140", "key": 0, "capacity": 1000.0, "source": 186, "target": 187}, {"id": "e42", "key": 0, "capacity": 1000.0, "source": 187, "target": 163}, {"id": "e140", "key": 0, "capacity": 1000.0, "source": 187, "target": 186}, {"id": "e127", "key": 0, "capacity": 1000.0, "source": 188, "target": 22}, {"id": "e139", "key": 0, "capacity": 1000.0, "source": 188, "target": 51}, {"id": "e1", "key": 0, "capacity": 1000.0, "source": 189, "target": 41}, {"id": "e0", "key": 0, "capacity": 1000.0, "source": 189, "target": 182}, {"id": "e2", "key": 0, "capacity": 1000.0, "source": 190, "target": 191}, {"id": "e3", "key": 0, "capacity": 1000.0, "source": 191, "target": 8}, {"id": "e4", "key": 0, "capacity": 1000.0, "source": 191, "target": 113}, {"id": "e2", "key": 0, "capacity": 1000.0, "source": 191, "target": 190}, {"id": "e5", "key": 0, "capacity": 1000.0, "source": 192, "target": 193}, {"id": "e5", "key": 0, "capacity": 1000.0, "source": 193, "target": 192}, {"id": "e6", "key": 0, "capacity": 1000.0, "source": 193, "target": 194}, {"id": "e7", "key": 0, "capacity": 1000.0, "source": 194, "target": 8}, {"id": "e8", "key": 0, "capacity": 1000.0, "source": 194, "target": 98}, {"id": "e6", "key": 0, "capacity": 1000.0, "source": 194, "target": 193}, {"id": "e150", "key": 0, "capacity": 1000.0, "source": 195, "target": 155}, {"id": "e149", "key": 0, "capacity": 1000.0, "source": 195, "target": 196}, {"id": "e147", "key": 0, "capacity": 1000.0, "source": 196, "target": 38}, {"id": "e148", "key": 0, "capacity": 1000.0, "source": 196, "target": 158}, {"id": "e146", "key": 0, "capacity": 1000.0, "source": 196, "target": 181}, {"id": "e149", "key": 0, "capacity": 1000.0, "source": 196, "target": 195}]}